{
  "datong": {
    "name": "大通",
    "lat": 30.767,
    "lon": 117.633,
    "type": "river",
    "row": 11584,
    "api_all": "https://geomodeling.njnu.edu.cn/waterLevel/YangtzeDownstream/getAllInfoByStation",
    "api_time": "https://geomodeling.njnu.edu.cn/waterLevel/YangtzeDownstream/getInfoByStationAndTime"
  },
  "yanglin": {
    "name": "杨林",
    "lat": 31.583,
    "lon": 121.267,
    "type": "river",
    "row": 47421,
    "api_all": "https://geomodeling.njnu.edu.cn/waterLevel/jiangsu/getInfoByStation",
    "api_time": "https://geomodeling.njnu.edu.cn/waterLevel/jiangsu/getInfoByStationAndTime"
  },
  "wuhu": {
    "name": "芜湖",
    "lat": 31.35,
    "lon": 118.35,
    "type": "river",
    "row": 11584,
    "api_all": "https://geomodeling.njnu.edu.cn/waterLevel/anhui/getInfoByStation",
    "api_time": "https://geomodeling.njnu.edu.cn/waterLevel/anhui/getInfoByStationAndTime"
  },
  "liuxiao": {
    "name": "六滧",
    "lat": 31.5,
    "lon": 121.7,
    "type": "river",
    "row": 52143,
    "api_time": "http://223.2.32.197:9999/tide/getData/60117820"
  },
  "maanshan": {
    "name": "马鞍山",
    "lat": 31.717,
    "lon": 118.45,
    "type": "river",
    "row": 15581,
    "api_all": "https://geomodeling.njnu.edu.cn/waterLevel/anhui/getInfoByStation",
    "api_time": "https://geomodeling.njnu.edu.cn/waterLevel/anhui/getInfoByStationAndTime"
  },
  "nanjing": {
    "name": "南京",
    "lat": 32.083,
    "lon": 118.717,
    "type": "river",
    "row": 20520,
    "api_all": "https://geomodeling.njnu.edu.cn/waterLevel/jiangsu/getAllInfoByStation",
    "api_time": "https://geomodeling.njnu.edu.cn/waterLevel/jiangsu/getInfoByStationAndTime"
  },
  "wusong": {
    "name": "吴淞",
    "lat": 31.267,
    "lon": 121.233,
    "type": "river",
    "row": 49073,
    "api_all": "https://geomodeling.njnu.edu.cn/waterLevel/jiangsu/getInfoByStation",
    "api_time": "https://geomodeling.njnu.edu.cn/waterLevel/jiangsu/getInfoByStationAndTime"
  },
  "zhenjiang": {
    "name": "镇江",
    "lat": 32.217,
    "lon": 119.433,
    "type": "river",
    "row": 27261,
    "api_all": "https://geomodeling.njnu.edu.cn/waterLevel/jiangsu/getInfoByStation",
    "api_time": "https://geomodeling.njnu.edu.cn/waterLevel/jiangsu/getInfoByStationAndTime"
  },
  "fenghuangjingzhanxia": {
    "name": "凤凰颈站下",
    "lat": 31.133,
    "lon": 117.783,
    "type": "river",
    "row": 4924,
    "api_all": "https://geomodeling.njnu.edu.cn/waterLevel/anhui/getInfoByStation",
    "api_time": "https://geomodeling.njnu.edu.cn/waterLevel/anhui/getInfoByStationAndTime"
  },
  "jiangyin": {
    "name": "江阴",
    "lat": 31.95,
    "lon": 120.3,
    "type": "river",
    "row": 36159,
    "api_all": "https://geomodeling.njnu.edu.cn/waterLevel/jiangsu/getInfoByStation",
    "api_time": "http://223.2.32.197:9999/tide/getData/60116700CWF"
  },
  "yuxizhaxia": {
    "name": "裕溪闸下",
    "lat": 31.433,
    "lon": 118.317,
    "type": "river",
    "row": 11584,
    "api_all": "https://geomodeling.njnu.edu.cn/waterLevel/anhui/getInfoByStation",
    "api_time": "https://geomodeling.njnu.edu.cn/waterLevel/anhui/getInfoByStationAndTime"
  },
  "tianshenggang": {
    "name": "天生港",
    "lat": 32.033,
    "lon": 120.75,
    "type": "river",
    "row": 39522,
    "api_all": "https://geomodeling.njnu.edu.cn/waterLevel/jiangsu/getInfoByStation",
    "api_time": "https://geomodeling.njnu.edu.cn/waterLevel/jiangsu/getInfoByStationAndTime"
  },
  "xinqiaozhaxia": {
    "name": "新桥闸下",
    "lat": 31.533,
    "lon": 118.367,
    "type": "river",
    "row": 13008,
    "api_all": "https://geomodeling.njnu.edu.cn/waterLevel/anhui/getInfoByStation",
    "api_time": "https://geomodeling.njnu.edu.cn/waterLevel/anhui/getInfoByStationAndTime"
  },
  "xuliujing": {
    "name": "徐六泾",
    "lat": 31.75,
    "lon": 120.95,
    "type": "river",
    "row": 43341,
    "api_all": "https://geomodeling.njnu.edu.cn/waterLevel/jiangsu/getInfoByStation",
    "api_time": "http://223.2.32.197:9999/tide/getData/60117400"
  },
  "zhapu": {
    "name": "乍浦",
    "lat": 30.583,
    "lon": 121.1,
    "type": "sea",
    "row": 82064,
    "api_all": "https://geomodeling.njnu.edu.cn/waterLevel/zhejiang/getInfoByStation",
    "api_time": "https://geomodeling.njnu.edu.cn/waterLevel/zhejiang/getInfoByStationAndTime"
  },
  "ganpu": {
    "name": "澉浦",
    "lat": 30.367,
    "lon": 120.917,
    "type": "sea",
    "row": 87448,
    "api_all": "https://geomodeling.njnu.edu.cn/waterLevel/zhejiang/getInfoByStation",
    "api_time": "https://geomodeling.njnu.edu.cn/waterLevel/zhejiang/getInfoByStationAndTime"
  },
  "jinqiao": {
    "name": "金桥",
    "lat": 30.645026,
    "lon": 121.179666,
    "type": "sea",
    "row": 85848,
    "api_all": "https://geomodeling.njnu.edu.cn/waterLevel/zhejiang/getInfoByStation",
    "api_time": "https://geomodeling.njnu.edu.cn/waterLevel/zhejiang/getInfoByStationAndTime"
  },
  "lianxinggang": {
    "name": "连兴港",
    "lat": 31.68,
    "lon": 121.88,
    "type": "river",
    "row": 85848,
    "api_all": "",
    "api_time": "http://223.2.32.197:9999/tide/getData/60117840"
  },
  "sanjiangying": {
    "name": "三江营",
    "lat": 32.312538,
    "lon": 119.711076,
    "type": "river",
    "row": 85848,
    "api_all": "",
    "api_time": ""
  },
  "sheyanghezha": {
	"name": "射阳河闸",
    "lat": 33.8833,
    "lon": 120.5667,
    "type": "sea",
    "row": 85848,
    "api_all": "",
    "api_time": ""
  },
  "huangshagangzha": {
	"name": "黄沙港闸",
    "lat": 33.8186472,
    "lon": 120.5225361,
    "type": "sea",
    "row": 85848,
    "api_all": "",
    "api_time": ""
  },
  "doulonggangzha": {
	"name": "斗龙港闸",
    "lat": 33.5016111,
    "lon": 120.644513,
    "type": "sea",
    "row": 85848,
    "api_all": "",
    "api_time": ""
  },
  "xiaoyangkouzha": {
	"name": "小洋口闸",
    "lat": 32.5675333,
    "lon": 121.0464472,
    "type": "sea",
    "row": 85848,
    "api_all": "",
    "api_time": ""
  },
  "xinyanggangzha": {
	"name": "新洋港闸",
    "lat": 33.6434389,
    "lon": 120.59291,
    "type": "sea",
    "row": 85848,
    "api_all": "",
    "api_time": ""
  },
  "wanggangxinzha": {
	"name": "王港新闸",
    "lat": 33.1912967,
    "lon": 120.8470361,
    "type": "sea",
    "row": 85848,
    "api_all": "",
    "api_time": ""
  },
  "liangduohezha": {
	"name": "粱垛河闸",
    "lat": 32.8891417,
    "lon": 120.9397639,
    "type": "sea",
    "row": 85848,
    "api_all": "",
    "api_time": ""
  }
}