{
  "datong": {
    "name": "大通",
    "lat": 30.767,
    "lon": 117.633,
    "type": "river"
  },
  "yanglin": {
    "name": "杨林",
    "lat": 31.583,
    "lon": 121.267,
    "type": "river"
  },
  "wuhu": {
    "name": "芜湖",
    "lat": 31.35,
    "lon": 118.35,
    "type": "river"
  },
  "liulang": {
    "name": "六滧",
    "lat": 31.5,
    "lon": 121.7,
    "type": "river"
  },
  "maanshan": {
    "name": "马鞍山",
    "lat": 31.717,
    "lon": 118.45,
    "type": "river"
  },
  "gaoqiao": {
    "name": "高桥",
    "lat": 31.383,
    "lon": 121.55,
    "type": "river"
  },
  "nanjing": {
    "name": "南京",
    "lat": 32.083,
    "lon": 118.717,
    "type": "river"
  },
  "wusong": {
    "name": "吴淞",
    "lat": 31.267,
    "lon": 121.233,
    "type": "river"
  },
  "zhenjiang": {
    "name": "镇江",
    "lat": 32.217,
    "lon": 119.433,
    "type": "river"
  },
  "fenghuangjingzhanxia": {
    "name": "凤凰颈站下",
    "lat": 31.133,
    "lon": 117.783,
    "type": "river"
  },
  "jiangyin": {
    "name": "江阴",
    "lat": 31.95,
    "lon": 120.3,
    "type": "river"
  },
  "yuxizhaxia": {
    "name": "裕溪闸闸下",
    "lat": 31.433,
    "lon": 118.317,
    "type": "river"
  },
  "tianshenggang": {
    "name": "天生港",
    "lat": 32.033,
    "lon": 120.75,
    "type": "river"
  },
  "xinqiaozhaxia": {
    "name": "新桥闸闸下",
    "lat": 31.533,
    "lon": 118.367,
    "type": "river"
  },
  "xuliujing": {
    "name": "徐六泾",
    "lat": 31.75,
    "lon": 120.95,
    "type": "river"
  },
  "sheyanghekou": {
    "name": "射阳河口",
    "lat": 33.883,
    "lon": 120.567,
    "type": "sea"
  },
  "huangshagangzhaxia": {
    "name": "黄沙港闸下",
    "lat": 33.583,
    "lon": 120.633,
    "type": "sea"
  },
  "xinyanggangzhaxia": {
    "name": "新洋港闸下",
    "lat": 33.633,
    "lon": 120.6,
    "type": "sea"
  },
  "doulonggangzhaxia": {
    "name": "斗龙港闸下",
    "lat": 33.517,
    "lon": 120.667,
    "type": "sea"
  },
  "chuandonggangzhaxia": {
    "name": "川东港闸下",
    "lat": 33.083,
    "lon": 120.917,
    "type": "sea"
  },
  "zhapu": {
    "name": "乍浦",
    "lat": 30.583,
    "lon": 121.1,
    "type": "sea"
  },
  "ganpu": {
    "name": "澉浦",
    "lat": 30.367,
    "lon": 120.917,
    "type": "sea"
  },
  "yanguan": {
    "name": "盐官",
    "lat": 30.4,
    "lon": 120.55,
    "type": "sea"
  },
  "jinqiao": {
    "name": "金桥",
    "lat": 30.645026,
    "lon": 121.179666,
    "type": "sea"
  }
}