{
"type": "FeatureCollection",
"name": "station",
"features": [
{ "type": "Feature", "properties": { "name": "大通", "id": "0" }, "geometry": { "type": "Point", "coordinates": [ 117.63333333333334, 30.766666666666666 ] } },
{ "type": "Feature", "properties": { "name": "杨林", "id": "1" }, "geometry": { "type": "Point", "coordinates": [ 121.266666666666666, 31.583333333333332 ] } },
{ "type": "Feature", "properties": { "name": "射阳河口", "id": "2" }, "geometry": { "type": "Point", "coordinates": [ 120.566666666666663, 33.883333333333333 ] } },
{ "type": "Feature", "properties": { "name": "芜湖", "id": "3" }, "geometry": { "type": "Point", "coordinates": [ 118.35, 31.35 ] } },
{ "type": "Feature", "properties": { "name": "六滧", "id": "4" }, "geometry": { "type": "Point", "coordinates": [ 121.7, 31.5 ] } },
{ "type": "Feature", "properties": { "name": "黄沙港闸下", "id": "5" }, "geometry": { "type": "Point", "coordinates": [ 120.63333333333334, 33.583333333333336 ] } },
{ "type": "Feature", "properties": { "name": "马鞍山", "id": "6" }, "geometry": { "type": "Point", "coordinates": [ 118.45, 31.716666666666665 ] } },
{ "type": "Feature", "properties": { "name": "高桥", "id": "7" }, "geometry": { "type": "Point", "coordinates": [ 121.55, 31.383333333333333 ] } },
{ "type": "Feature", "properties": { "name": "新洋港闸下", "id": "8" }, "geometry": { "type": "Point", "coordinates": [ 120.6, 33.633333333333333 ] } },
{ "type": "Feature", "properties": { "name": "南京", "id": "9" }, "geometry": { "type": "Point", "coordinates": [ 118.716666666666669, 32.083333333333336 ] } },
{ "type": "Feature", "properties": { "name": "吴淞", "id": "10" }, "geometry": { "type": "Point", "coordinates": [ 121.233333333333334, 31.266666666666666 ] } },
{ "type": "Feature", "properties": { "name": "斗龙港闸下", "id": "11" }, "geometry": { "type": "Point", "coordinates": [ 120.666666666666671, 33.516666666666666 ] } },
{ "type": "Feature", "properties": { "name": "镇江", "id": "12" }, "geometry": { "type": "Point", "coordinates": [ 119.433333333333337, 32.216666666666669 ] } },
{ "type": "Feature", "properties": { "name": "凤凰颈站下", "id": "13" }, "geometry": { "type": "Point", "coordinates": [ 117.783333333333331, 31.133333333333333 ] } },
{ "type": "Feature", "properties": { "name": "川东港闸下", "id": "14" }, "geometry": { "type": "Point", "coordinates": [ 120.916666666666671, 33.083333333333336 ] } },
{ "type": "Feature", "properties": { "name": "江阴", "id": "15" }, "geometry": { "type": "Point", "coordinates": [ 120.3, 31.95 ] } },
{ "type": "Feature", "properties": { "name": "裕溪闸闸下", "id": "16" }, "geometry": { "type": "Point", "coordinates": [ 118.316666666666663, 31.433333333333334 ] } },
{ "type": "Feature", "properties": { "name": "乍浦", "id": "17" }, "geometry": { "type": "Point", "coordinates": [ 121.1, 30.583333333333332 ] } },
{ "type": "Feature", "properties": { "name": "天生港", "id": "18" }, "geometry": { "type": "Point", "coordinates": [ 120.75, 32.033333333333331 ] } },
{ "type": "Feature", "properties": { "name": "新桥闸闸下", "id": "19" }, "geometry": { "type": "Point", "coordinates": [ 118.36666666666666, 31.533333333333335 ] } },
{ "type": "Feature", "properties": { "name": "澉浦", "id": "20" }, "geometry": { "type": "Point", "coordinates": [ 120.916666666666671, 30.366666666666667 ] } },
{ "type": "Feature", "properties": { "name": "徐六泾", "id": "21" }, "geometry": { "type": "Point", "coordinates": [ 120.95, 31.75 ] } },
{ "type": "Feature", "properties": { "name": "盐官", "id": "22" }, "geometry": { "type": "Point", "coordinates": [ 120.55, 30.4 ] } }
]
}
